[
  {
    "id": "fitzgerald-peterbilt",
    "id2": "1",
    "name": "Fitzgerald Peterbilt",
    "category": "restaurant",
    "rating": 4.9,
    "address": "3737 Oak Grove Rd, Gadsden, AL 35905",
    "status": "Closed",
    "hours": "7:00 AM - 5:00 PM",
    "phone": "123-456-7890",
    "website": "https://fitzgerald.com",
    "amenities": ["Transmission", "Trailer repair", "Electric", "Wi-Fi"],
    "location": {
      "lat": 33.9989,
      "lng": -85.9911
    }
  },
  {
    "id": "fitzgerald-peterbilt",
    "id2": "2",
    "name": "Fitzgerald Peterbilt",
    "category": "restaurant",
    "rating": 4.8,
    "address": "quack",
    "status": "Closed",
    "hours": "tabtap",
    "phone": "123-456-7890",
    "website": "https://fitzgerald.com",
    "amenities": ["Transmission", "Trailer repair", "Electric", "Wi-Fi"],
    "location": {
      "lat": 33.9989,
      "lng": -85.9911
    }
  },
  {
    "id": "trp",
    "id2": "3",
    "name": "TRP",
    "category": "restaurant",
    "rating": 4.8,
    "address": "2013 West Lukken Industrial Dr, LaGrange, GA",
    "status": "Closed",
    "hours": "7:00 AM - 5:00 PM",
    "phone": "987-654-3210",
    "website": "https://trp.com",
    "amenities": ["Transmission", "Electric", "AC/Heater", "Pet friendly"],
    "location": {
      "lat": 33.0362,
      "lng": -85.0314
    }
  },
  {
    "id": "fedex",
    "id2": "4",
    "name": "fedex",
    "category": "restaurant",
    "rating": 4.8,
    "address": "Blah blah",
    "status": "Closed",
    "hours": "7:00 AM - 5:00 PM",
    "phone": "987-654-3210",
    "website": "https://trp.com",
    "amenities": ["Transmission", "Electric", "AC/Heater", "Pet friendly"],
    "location": {
      "lat": 33.0362,
      "lng": -85.0314
    }
  }
]
